"Place","State","Latitude","Longitude","TotalPopulation","MalePopulation","FemalePopulation","MedianAge","AgricultureForestryandFishing","Mining","Manufacturing","ElectricityGasWaterWasteService","Construction","Wholesale","Retail","AccomodationFoodServices","TransportWarehousing","ITMediaTelecommunications","FinancialInsurance","RentalHiringRealEstate","ProfessionalScientificTechnical","AdministrativeSupport","PublicAdministration","EducationTraining","HealthCareSocial","ArtsRecreation","Other","MainEmployingIndustry"
"Adelaide","SA",-34.9295,138.5982,20920,10863,10057,30.6,0.6,1.3,4.6,1.1,3.5,2.3,8.7,11.7,2,3,3.4,1.7,12.7,3.1,7.8,10.2,15.1,2.6,2.9,"Health Care & Social Assistance"
"Albany","WA",-35.0239,117.8805,34873,17066,17807,40.8,6.4,1.6,7,1.3,10,2.7,13.4,6.4,4.2,0.8,1.8,1.7,4.1,3,7,9,12.7,1.1,4.1,"Retail Trade"
"Albury","NSW",-36.0765,146.9227,49451,24130,25321,37.3,1,0.2,12.6,0.8,8.6,3.3,12.6,7.9,4.2,1.3,2.1,1.3,4.5,2.8,7.5,8.7,13.7,1,4,"Health Care & Social Assistance"
"Alice Springs","NT",-23.6989,133.8829,28489,14898,13591,33.4,0.4,0.6,2.9,1.4,8,2.1,9.5,6.3,4.5,1.5,0.9,1.7,7.1,2.8,17.3,9.9,15.1,2.9,3.6,"Public Administration & Safety"
"Auburn","NSW",-33.8526,151.0363,77779,40568,37211,31.6,0.1,0.1,11,0.6,6.9,6.3,10.2,9.1,6.1,2.5,6.1,1.3,6.9,4.3,4.2,4.9,10.5,1.1,3.4,"Manufacturing"
"Ballarat","VIC",-37.5675,143.8509,95185,46401,48784,36.8,1.5,0.7,10.7,1,8.7,2.5,12.7,7.4,3.5,2,2,1.1,5.6,2.5,6,9.8,15.3,1.8,3.5,"Health Care & Social Assistance"
"Ballina","NSW",-28.8657,153.5643,40747,19771,20976,45.3,4.3,0.5,5.8,0.9,9.1,2.8,13,9,2.9,1.3,2.3,1.8,5.1,3,5.7,10.5,15.4,1.4,3.7,"Health Care & Social Assistance"
"Barcaldine","QLD",-23.5545,145.2843,3292,1660,1632,39.7,31.8,2.1,2.9,1.2,10.1,1.4,6.2,3.5,5.2,0.3,0.2,0.7,2.7,0.9,10.2,5.8,9,0.4,2.4,"Agriculture, Forestry and Fishing"
"Bassendean","WA",-31.9058,115.9474,15179,7621,7558,38.3,0.2,3.9,8.5,1.2,8.9,3.8,9.6,5.3,5,1.3,2.8,1.9,7.8,3.4,8.7,8.4,11.3,1.9,3.9,"Health Care & Social Assistance"
"Bellingen","NSW",-30.4541,152.898,12923,6312,6611,46.2,7.6,0.4,6.9,0.9,8.5,2.4,10.6,8.7,3.1,0.9,1.3,1.2,4.8,3.2,5.5,11.4,15.1,1.7,3.2,"Health Care & Social Assistance"
"Berrigan","NSW",-35.6603,145.8102,8297,4154,4143,47.9,18.9,0.1,8.5,1.6,6.7,2.6,10.2,8.8,5.8,0.3,0.9,0.7,2.7,2,3.7,7.3,11.8,0.9,3.8,"Agriculture, Forestry and Fishing"
"Blacktown","NSW",-33.771,150.9063,312346,156204,156142,32.7,0.5,0.1,12.7,1.2,7,6.3,10.8,5.3,7.5,1.9,5.8,1.2,5.5,3.3,6.2,5.7,11.4,1.1,3.8,"Manufacturing"
"Bombala","NSW",-36.9126,149.2374,2484,1265,1219,45.8,30.5,0.4,9.1,1.2,5.3,1.9,8.8,4.6,4.2,0.6,0.6,0.6,2.4,2.4,6.7,6.1,8.6,1.2,2.6,"Agriculture, Forestry and Fishing"
"Boulia","QLD",-22.9154,139.9058,493,277,216,29.6,45.7,0,0,1.7,6,1.3,4.3,3,2.6,0,0,0,0,0,18.8,4.7,4.3,0,2.1,"Agriculture, Forestry and Fishing"
"Bourke","NSW",-30.0916,145.9442,3053,1569,1484,34.8,19.1,1,1.4,1.6,4.3,1.3,9.3,4.6,2.1,1.3,1,0.4,1.5,2,14.7,11.8,14.7,1.4,3.1,"Agriculture, Forestry and Fishing"
"Boyup Brook","WA",-33.8354,116.3863,1617,799,818,43.8,42.8,3.4,3.8,0.7,5,2.5,5.3,2.3,3.3,0.4,1,1.1,2,1,4.9,7.7,7.1,0.4,2.6,"Agriculture, Forestry and Fishing"
"Brewarrina","NSW",-29.9622,146.8587,1874,951,923,32,24.7,0.5,1,1,3.6,1.1,4.2,3.4,1.6,0,0.5,0,0.7,1.9,14.4,17.1,16.2,0,4.2,"Agriculture, Forestry and Fishing"
"Brighton","SA",-35.0047529,138.5167874,15685,7702,7983,32.9,1.3,0.4,9.7,2.5,9.6,3.8,14.1,6.2,5.7,1.5,1.9,1.7,2.8,3.6,8.9,5.8,11.4,1.8,4.8,"Retail Trade"
"Brisbane","QLD",-27.4698,153.024,1089879,541993,547886,34.6,0.3,1.5,7.1,1.2,6.7,3.8,9.1,6.5,5,1.7,4.1,1.9,11.1,3.4,7.9,9.1,12.9,1.5,3.4,"Health Care & Social Assistance"
"Broken Hill","NSW",-31.958038,141.465138,19151,9401,9750,43.1,1.2,10.4,3.2,2.6,5.7,2.1,13.2,9.7,3.8,1,1.5,0.7,2.4,3.1,7.7,8.3,16.2,0.9,3.8,"Health Care & Social Assistance"
"Broome","WA",-17.957,122.2395,15737,7962,7775,32.2,2.7,3.1,3,1.3,9.5,1.5,9.8,9.7,7.4,1.5,0.9,2,2.9,3.2,8.8,10.3,12.6,1.3,5.7,"Health Care & Social Assistance"
"Bunbury","WA",-33.3267,115.6347,32580,16065,16515,38.6,0.8,3.3,12.4,1.8,14.4,2.4,12.3,6.9,4.1,1.2,1.6,1.6,4.5,2.8,4.8,7.4,10.8,0.8,4.1,"Construction"
"Bundaberg","QLD",-24.8683,152.3459,92063,45573,46490,42.8,9.4,2.3,8.6,1.1,8.1,3,12.8,6.4,3.8,0.8,1.7,1.4,3.4,2.8,5,8,14.6,0.7,3.9,"Health Care & Social Assistance"
"Burnie","TAS",-41.0573,145.9033,20164,9865,10299,38.5,2.9,4.2,12.2,0.8,6.2,3.3,13.4,7.1,4.8,1,1.8,1,3,3.7,7.4,8,12.8,0.6,4.4,"Retail Trade"
"Busselton","WA",-33.6537,115.344,31523,15263,16260,39.7,4.7,4.3,7,0.8,14,2.3,12.9,10.5,3.1,0.6,1.7,2.3,4.6,4.1,4.1,7.2,8.9,0.9,3.9,"Construction"
"Cairns","QLD",-16.9245,145.7652,162178,81293,80885,36,1.5,1.4,5.1,1.1,8.7,3,11.8,10.7,6.8,0.9,1.7,2,4.9,3.8,8,7.8,12.4,1.8,4.1,"Health Care & Social Assistance"
"Cambridge","TAS",-42.8333,147.4333,26730,13098,13632,39.7,0.4,6.6,3.5,0.8,6.2,2.9,8.3,5.2,2,1.5,4,2.3,16.3,2.8,5.1,10.2,15.2,2.1,2.5,"Professional Scientific & Technical Services"
"Campbelltown","NSW",-34.0738,150.808,151173,74414,76759,33.4,0.3,0.2,13.9,1.1,7,5.2,10.8,5.9,8.5,1.6,4.5,1.4,4.5,3.5,6.4,6.8,10.8,1.2,3.8,"Manufacturing"
"Carnamah","WA",-29.6899,115.8845,554,293,261,42.9,29.1,6.4,3,1.1,4.5,6.8,7.9,2.3,5.3,1.1,2.6,0,1.1,0,9.8,9.4,3.8,0,3.4,"Agriculture, Forestry and Fishing"
"Carnarvon","WA",-24.8837,113.6562,6076,3047,3029,37.8,14.8,6.9,3.3,2,7.7,2.5,10,7.4,6.3,0.4,0.6,1.3,1.7,4,7.4,8.1,9,1,2.9,"Agriculture, Forestry and Fishing"
"Cessnock","NSW",-32.8337,151.3551,52485,26314,26171,37.3,1.8,10.2,12.4,1.1,7.6,2.6,11.5,9.8,4,0.6,1.4,1.5,3.4,3.4,4.3,4.9,10.9,1.1,5.2,"Manufacturing"
"Charters Towers","QLD",-20.0739,146.261,12434,6261,6173,38.1,11.1,13.7,4,0.6,7,1.9,10.2,6.3,4.6,0.5,0.7,1.1,2,1.9,6.5,11.5,9.9,0.4,3.5,"Mining"
"Claremont","WA",-31.976613,115.785964,9924,4833,5091,41,1.3,6.4,2.9,0.5,4.4,2.4,9.3,6.4,1.3,1.4,4,2.7,14.7,2.4,4.6,12.7,16.2,1.7,2.5,"Health Care & Social Assistance"
"Clarence","NSW",-29.5667,153.2833,52825,26216,26609,40.9,1.4,0.3,5.7,2.1,8.5,2.7,11.6,5.9,3.8,1.9,3.3,1.6,5.7,2.7,13.2,10.3,12,2,3.8,"Public Administration & Safety"
"Cloncurry","QLD",-20.7055,140.5092,3342,1886,1456,32.1,12.3,19,5.7,0.4,8.3,2,5.8,5.1,13.1,0.4,1.1,0.6,0.8,2,8.6,4.8,4.8,0.2,1.9,"Mining"
"Coffs Harbour","NSW",-30.315,153.118,70972,34740,36232,42.2,3.6,0.3,5.2,0.9,9.5,2.6,13.8,10,3.6,1.2,2.2,1.9,4.6,3.1,6.2,8.6,15.3,1.5,4.1,"Health Care & Social Assistance"
"Collie","WA",-33.3633,116.1547,9343,4953,4390,39.7,1.3,15.3,10.7,6.4,15.6,0.7,9.3,6.4,2.9,0.6,0.9,1.3,2.2,2.5,4.3,6.2,7.4,0.3,3.1,"Construction"
"Coolgardie","WA",-30.9549,121.1645,4138,2229,1909,31.3,0.4,44.8,5.6,0.4,5.9,0.7,6.3,4.1,4.5,0.2,0.3,0.8,2.1,2.2,4.7,6,3.9,0.3,3,"Mining"
"Coonamble","NSW",-30.9566,148.3872,4226,2142,2084,39.9,30.8,0.2,1.1,1.2,5.7,3.1,7.3,4,4.1,0.3,0.6,0.3,2.1,1.7,7.6,10.2,11.4,1.3,3.3,"Agriculture, Forestry and Fishing"
"Cottesloe","WA",-31.998556,115.759055,8236,4061,4175,40.5,0.9,6.5,4.3,0.5,6,2.7,7.9,5.7,2,1.7,4.3,3.4,16.8,2.9,4.3,9.4,15.3,1.5,1.8,"Professional Scientific & Technical Services"
"Cowra","NSW",-33.8371,148.6954,12523,6311,6212,44.9,15.4,0.9,10.3,1.3,5.6,4.1,11.5,7,4.1,0.6,1.3,1.1,2.7,1.7,5,8.2,12.2,0.9,3.6,"Agriculture, Forestry and Fishing"
"Croydon","SA",-34.893514,138.5551392,327,179,148,31.1,39.6,0,0,0,3.6,0,2.9,5.8,2.9,0,0,0,0,0,25.9,5,2.2,0,2.9,"Agriculture, Forestry and Fishing"
"Dardanup","WA",-33.4,115.75,12852,6337,6515,35.5,3.3,5.1,14.5,2.1,14,2.8,12.3,5.2,4.6,0.8,1.7,1.8,3.4,2,4.3,6.6,8.4,0.7,4.4,"Manufacturing"
"Darwin","NT",-12.4668,130.8433,78467,40814,37653,34,0.6,1.6,3.6,1.4,8.1,2.4,8.3,7,5.2,1.4,1.8,1.9,6.5,3.2,20.6,8.5,10.7,2.3,3.4,"Public Administration & Safety"
"Deniliquin","NSW",-35.5308,144.9603,7303,3574,3729,43.7,6.2,0.3,8.3,3.1,7.5,3,13.1,7.1,4.9,1,2.4,1,4.5,2.3,6.6,7,14.7,0.8,4.1,"Health Care & Social Assistance"
"Denmark","WA",-34.9635,117.3561,5373,2639,2734,46.7,10.2,2.6,6.7,0.7,10.8,1.7,10.6,9.2,2.6,0.6,1.3,1.7,4.8,2.5,6.7,10.9,10.3,1.4,2.5,"Education & Training"
"Devonport","TAS",-41.1925,146.3602,25752,12501,13251,40.6,3.2,1.3,11.8,1.4,8,4.5,12.8,7.7,6.4,0.8,1.7,1.3,3.8,3.9,5.5,8.5,11.3,0.7,4.1,"Retail Trade"
"Dowerin","WA",-31.1951,117.0357,700,364,336,40.6,41.7,1.6,2.2,0,4.1,3.7,6.2,2.8,5,0,1.6,0,2.5,0.9,8.1,9.4,4.1,0.9,3.4,"Agriculture, Forestry and Fishing"
"Dubbo","NSW",-32.2549,148.6017,40246,19636,20610,36.1,3.3,0.9,6.8,1.5,7.4,4.1,12.5,7.3,4.9,1.1,2.4,1.4,4.3,2.5,7.5,9.3,14.8,1.6,4.7,"Health Care & Social Assistance"
"Dungog","NSW",-32.4019,151.7564,8556,4329,4227,43.9,11,3.8,8.7,1.7,9.6,2.7,9.3,6.3,5.5,0.5,1.5,1.8,4.7,2.5,5.1,7.3,10.4,0.6,4.7,"Agriculture, Forestry and Fishing"
"Esperance","WA",-33.8614,121.8811,13879,6888,6991,38,15.8,3.1,4.4,1.2,8.3,3.9,10.4,6.7,9.1,0.6,1.5,1.1,2.9,2.2,4.6,8.2,8.7,0.7,4.4,"Agriculture, Forestry and Fishing"
"Exmouth","WA",-21.9415,114.1236,2458,1314,1144,38.5,2.6,1.6,7.8,0.8,11.8,1.3,10.7,12.8,8.6,0.6,0.2,2.1,5.9,2.9,12.8,5.6,5,0.6,3.2,"Accommodation & Food Services"
"Fairfield","QLD",-27.5167,153.0333,196479,97495,98984,35.6,0.5,0.1,17.8,0.8,8.6,5.5,11.6,6.2,6.7,1.7,4.6,1.2,4.6,3.4,4,4.2,8.6,1,4.5,"Manufacturing"
"Forbes","NSW",-33.3859,148.0064,9469,4732,4737,41,19.2,2.8,5.8,1.2,5.5,3.9,10.9,5.8,4,0.3,1.4,0.9,4.7,1.8,5,9.4,10.9,0.5,3.5,"Agriculture, Forestry and Fishing"
"Fremantle","WA",-32.0531,115.745,28651,14111,14540,41.1,0.5,4.5,7.1,1,7.8,2.9,8.3,6.5,3.9,1.4,1.8,1.6,10.4,2.9,6.2,11.9,14,2.2,2.9,"Health Care & Social Assistance"
"George Town","TAS",-41.1077,146.8227,6857,3455,3402,42,4.3,1.3,24.2,2.1,7,2.3,10.6,6,6.8,0.6,0.8,0.7,1.7,2.6,5.3,7.6,9.9,0.7,2.6,"Manufacturing"
"Gilgandra","NSW",-31.71,148.662,4515,2195,2320,43.7,28.6,0.3,2.1,1.4,5,1.9,9.2,6.4,4.1,0.6,1.2,0.4,2.4,1.9,7.2,8.2,12.9,0.4,4.1,"Agriculture, Forestry and Fishing"
"Gladstone","QLD",-23.8475,151.2578,59461,31068,28393,35.1,1.6,3.4,17,2.6,13.8,2.4,9.5,5.9,7.7,0.4,1.1,1.8,7.3,2.5,3.9,6.3,6.4,0.5,3.4,"Manufacturing"
"Glenelg","SA",-34.9803812,138.5107718,19848,10041,9807,43.1,12.7,0.4,16.5,1.2,6.8,2.6,9.5,6.8,5.5,0.5,1.2,1,2.8,2,4.8,6.7,12.3,1.1,3.3,"Manufacturing"
"Glenorchy","TAS",-42.8302,147.2848,45402,22162,23240,38.7,0.7,0.2,9,2.2,7.8,3.5,13,7.4,4.8,2,2.7,1.2,3.7,2.9,10.7,6.5,13,1.9,4.4,"Retail Trade"
"Goondiwindi","QLD",-28.548,150.3062,10900,5493,5407,38,26.1,1.1,4.7,0.9,6.2,4,10.9,6.6,5.2,0.5,1.4,0.8,3.8,1.1,3.5,7,9.2,0.5,3.8,"Agriculture, Forestry and Fishing"
"Gosford","NSW",-33.4246,151.3441,168323,81772,86551,41.6,0.7,0.4,7.6,1.1,9.1,3.5,11.7,6.9,4,2.4,3.6,1.8,6.6,3.4,6.5,7.9,15,1.6,4,"Health Care & Social Assistance"
"Gunnedah","NSW",-30.9822,150.2572,12519,6328,6191,39.6,16.9,7.5,7,1.3,5.2,2.7,9.8,6.8,4.8,0.6,1.3,1.2,3.2,2.1,5,7.7,9.4,0.7,4.3,"Agriculture, Forestry and Fishing"
"Gympie","QLD",-26.1907,152.6571,46837,23395,23442,42.9,8.8,2.1,11.5,1,9.1,3.1,12,6.8,4.6,0.7,1.3,1.4,3.3,2.7,5.4,7.8,11.1,0.8,4.2,"Retail Trade"
"Halls Creek","WA",-18.2263,127.6652,3893,1965,1928,26,8.4,10,0.3,0.3,6.8,0.4,3.1,4.3,1,0.4,0,0.4,0.8,4.4,8.7,21.2,13,1.8,11.1,"Education & Training"
"Hay","NSW",-34.5057,144.843,3085,1556,1529,43,21.9,0.5,2.5,0.8,6.6,2.5,12.2,8.8,3.8,0.9,1,0.7,2.6,1.8,11,8.2,6.9,1.3,3.1,"Agriculture, Forestry and Fishing"
"Hobart","TAS",-42.8847,147.3303,50482,25111,25371,37.9,1.3,0.3,3.7,1.9,4.1,1.8,9.6,9.3,1.8,2.6,2.9,1.6,9.9,2,13.7,12.7,13.8,2.8,3.1,"Health Care & Social Assistance"
"Hope Vale","QLD",-15.292,145.111,1052,563,489,24.8,1.1,5.4,0,0,5,0,2.5,0,0,0,0,0,1.4,5,45.4,12.5,10,2.5,4.3,"Public Administration & Safety"
"Inverell","NSW",-29.7756,151.1105,16584,8229,8355,40.1,13.2,0.8,10,1.4,6.7,3.2,13.9,6,2.8,0.9,1.5,1.5,3.2,1.6,5.4,8.2,13.1,0.7,3.7,"Retail Trade"
"Ipswich","QLD",-27.6171,152.76,172200,86304,85896,32.1,0.6,1,14.4,1.4,7.8,4.2,10.7,5.2,6.8,0.9,2.4,1.4,4.5,3.1,9.7,6.9,12.1,0.9,3.7,"Manufacturing"
"Kalamunda","WA",-31.9742,116.0555,56492,28133,28359,38.5,1,4.9,9.5,1.1,9.9,5.1,10.8,4.3,7.8,0.9,2.3,1.7,6.1,3,6,7.9,9.3,1.3,5.1,"Retail Trade"
"Katanning","WA",-33.6905,117.555,4290,2099,2191,36.7,13.3,1.9,10.8,1.7,4.8,9.2,11.2,3.4,4.1,0.5,1.9,1.1,2.5,2.2,6.2,8.5,9.2,0.2,4.3,"Agriculture, Forestry and Fishing"
"Katherine","NT",-14.4666,132.2623,10488,5524,4964,31.6,3.6,1.5,1.9,1.3,6.4,1.4,8.1,7.5,4,0.7,0.9,0.9,3.1,3.8,25.5,9.2,14,1,3.6,"Public Administration & Safety"
"Kellerberrin","WA",-31.6336,117.7187,1211,606,605,44.6,24.2,2.2,7.6,2,4.6,1.7,11.3,3.5,4.4,0,0.7,0,0.9,0.7,5.9,10.9,13.3,1.1,2.4,"Agriculture, Forestry and Fishing"
"Kempsey","NSW",-31.0714,152.826,29128,14734,14394,44.4,5.2,0.4,7.6,1.2,9,2.5,13.6,9,4.5,0.7,1.3,1.1,3.2,3.2,6.6,8.9,15.4,1,3.3,"Health Care & Social Assistance"
"King Island","TAS",-39.887,143.902,1637,868,769,44.8,25.9,0.7,19.2,1.1,6.2,2.1,7.5,4.1,6.2,0.4,1.2,0.4,1.4,0.9,7.5,4.7,6,0,2.7,"Agriculture, Forestry and Fishing"
"Kingston","TAS",-42.9778,147.3035,148304,72891,75413,39.4,0.2,0.1,12.6,1,8.5,5.7,11,5,4,2.1,4.8,1.4,8.1,3.4,5.1,7.9,11,1.7,3.7,"Manufacturing"
"Kogarah","NSW",-33.9659,151.136,58916,28968,29948,37.4,0.1,0.1,7,0.8,6.3,5.3,10.1,8.1,7,2.5,7.1,2,9.4,3.6,5.1,6.8,11.5,1.3,3.4,"Health Care & Social Assistance"
"Kojonup","WA",-33.8317,117.158,2030,996,1034,42.3,45.1,1.3,2.4,0.7,3.6,2.4,8.6,3.4,5,0,1.1,0,3.2,0.6,4,6.7,5.9,0.5,2.5,"Agriculture, Forestry and Fishing"
"Kulin","WA",-32.6681,118.1565,855,435,420,40.5,53,0.9,1.1,0,2.2,2.2,5.1,2,3.8,0,1.6,0,3.1,0.7,6.7,8.7,4.4,0,3.6,"Agriculture, Forestry and Fishing"
"Kyogle","NSW",-28.6214,153.0036,9537,4832,4705,45.3,17.1,0.7,9.9,0.9,7.5,3.9,10.1,4.4,3.9,0.5,1.3,0.9,3.2,1.9,4.5,9.3,13.9,1.1,3.1,"Agriculture, Forestry and Fishing"
"Latrobe","TAS",-41.2371,146.412,73788,36555,37233,38.7,2.2,1.8,9.7,6.5,9.9,2.3,12.6,6.3,3.5,1,2,1.1,3.4,2.8,7.4,7.8,12.9,0.9,3.6,"Health Care & Social Assistance"
"Launceston","TAS",-41.447,147.1386,67154,33135,34019,37.7,1.7,0.6,9.4,1.3,7.1,3.9,12.4,8.4,4.5,1.5,3.3,1.3,4.3,2.9,6.8,10.2,13,1.6,3.7,"Health Care & Social Assistance"
"Laverton","WA",-28.6265,122.3996,1288,868,420,37.1,0.5,55.3,2.4,0.8,4.1,0,0.9,5.7,4,0,0.5,0,0.4,2.1,8.3,4.1,2.8,0.4,6.3,"Mining"
"Leonora","WA",-28.8869,121.3297,2628,1726,902,31.9,0.9,49.5,10,0.4,7.2,0.9,1.8,6.4,3.2,0,0.5,0.2,1.6,1.6,4.3,4.5,2.5,0,2.3,"Mining"
"Lismore","NSW",-28.8093,153.2808,44348,21913,22435,40,5.2,0.4,7.1,0.7,6.8,2.8,13.8,6.8,3.2,1.8,2,1.3,4.6,2.8,5.1,11.2,17.6,1.3,3.8,"Health Care & Social Assistance"
"Lithgow","NSW",-33.4827,150.1357,20850,10740,10110,42.1,2.7,12.4,6.7,4.3,5.9,1.9,10,8.3,5.8,0.6,1.7,1,3.1,3.4,8.4,6.3,11,1,3.6,"Mining"
"Lockhart","NSW",-35.2238,146.7229,3098,1597,1501,44.9,30.4,0.2,3.1,1.5,4.5,1.7,7.4,4.3,8.8,1.1,1.1,0.2,2,1.7,6.4,6.7,13.1,0.3,3.8,"Agriculture, Forestry and Fishing"
"Longreach","QLD",-23.4445,144.2475,4296,2109,2187,34.2,17,0.9,2.5,0.7,8.3,2.5,10.3,6.7,4.5,1.3,2,0.9,2.2,2,8.6,9.4,11.8,1.6,4.2,"Agriculture, Forestry and Fishing"
"Mackay","QLD",-21.155,149.1664,115960,60205,55755,35.7,3.2,11.1,9.5,0.9,10.3,4.5,10.1,5.9,6.8,0.6,1.4,1.8,4.7,2.5,4,5.8,8.7,0.5,5.3,"Mining"
"Maitland","NSW",-32.7407,151.5616,69924,34546,35378,35.9,1,6.4,11.7,1.5,8.2,3.1,11.5,6.6,4.6,0.8,2.2,1.5,5.1,3.2,5.9,7.1,11.6,1,5,"Manufacturing"
"Manjimup","WA",-34.2424,116.1441,9463,4721,4742,41.5,17.7,2.5,8.9,0.7,6.5,2.9,10.2,8.6,4,0.4,1.2,0.9,2.6,2.5,7.8,8,8.1,0.5,3.6,"Agriculture, Forestry and Fishing"
"Manly","NSW",-33.794,151.2841,42818,21096,21722,37,0.3,0.2,4.2,0.5,5.4,5.2,7.1,5.9,2.6,4.6,11.4,2.7,18.5,4.3,3.8,7.6,8.9,1.9,2.8,"Professional Scientific & Technical Services"
"Mansfield","VIC",-37.0535,146.0872,7942,4016,3926,45.6,9.4,1.2,4.4,0.8,11,1.9,11.9,13.1,3.6,0.9,1,2.1,4,2.8,5.3,11.2,8.9,1.1,3.3,"Accommodation & Food Services"
"Marion","SA",-35.012406,138.541138,85714,41492,44222,39.3,0.4,0.8,8.5,1.5,7.7,3.3,11.8,6.3,3.9,1.7,4.5,1.4,5.9,3.6,7.6,8.3,15.7,1.6,4,"Health Care & Social Assistance"
"Mckinlay","QLD",-21.2667,141.2833,1085,644,441,33.4,39.8,20.9,1,0.4,6.3,0,4.6,3.7,3.4,0,0.4,1,0.9,1.2,8,1.6,3.1,0,1.2,"Agriculture, Forestry and Fishing"
"Meekatharra","WA",-26.5973,118.4912,1424,828,596,33.9,7.7,37.9,0.9,0,4.2,0.9,2,5,4.2,0,0.5,0.5,0.6,2.6,6.8,11.1,7.1,0,3.3,"Mining"
"Melbourne","VIC",-37.8099,144.9622,100240,50401,49839,28.8,0.3,0.4,4.2,1,3,3.5,7.7,10.7,2.6,3.6,8.1,1.7,18.8,3.5,5,8.4,10,3.2,2.4,"Professional Scientific & Technical Services"
"Menzies","WA",-29.6833,121.0333,402,205,197,36.9,2.5,17.4,0,0,11.6,0,4.1,3.3,0,0,0,0,0,3.3,15.7,19.8,2.5,0,13.2,"Education & Training"
"Mingenew","WA",-29.1921,115.4401,489,246,243,39.3,47.8,3,1.3,0,3.5,1.7,3.9,2.2,7.8,0,0,0,1.3,0,9.9,7.3,6.9,0,2.2,"Agriculture, Forestry and Fishing"
"Mornington","TAS",-42.8594,147.3978,1220,604,616,26.1,3.9,1.4,0,0,8.6,0,5.7,2.2,0,0,0,0,0,2.2,25.8,14,16.5,4.3,12.2,"Public Administration & Safety"
"Mosman","NSW",-33.839014,151.244891,29351,13819,15532,40.4,0.4,0.4,3.6,0.4,3.5,4.2,6.7,5.1,2.3,4.6,14.8,3.2,20.2,3.7,4,6.6,9.4,2.1,2.4,"Professional Scientific & Technical Services"
"Mount Gambier","SA",-37.8252,140.7811,25773,12524,13249,37.6,4.7,0.4,14.7,0.8,7.7,3.5,14.5,8,4.5,1.1,1.9,1.2,2.7,3.2,4.5,7.6,11.8,0.9,4.4,"Manufacturing"
"Mount Isa","QLD",-20.7287,139.4897,22079,11792,10287,30.3,1.2,31.4,4.6,1.3,5.7,2.6,8.1,5.1,3.8,0.6,0.8,1.4,2.2,2.9,6,6.9,9.3,0.3,3.6,"Mining"
"Muswellbrook","NSW",-32.319,150.7646,16328,8511,7817,33.8,7.1,21.3,5.5,4.5,6.7,3.3,9.2,6.9,3,0.4,1.1,1.3,2.9,3.1,4,4.8,6.9,1,4.5,"Mining"
"Nannup","WA",-33.9804,115.7628,1304,694,610,49.2,19.9,3.6,14.1,0,8.4,0.7,7.2,8.4,2.6,0.5,0,1.4,2.9,2.6,6.8,7.5,10.2,0.7,1.4,"Agriculture, Forestry and Fishing"
"Narrogin","WA",-32.934,117.1761,900,479,421,39.7,32.9,1.6,3.5,1.6,5.5,5.1,6.8,1.1,2.9,0,2.9,0,4.2,1.8,4.9,11.3,9.3,0,2.7,"Agriculture, Forestry and Fishing"
"Newcastle","NSW",-32.9298,151.7828,155550,77444,78106,37.1,0.3,1.6,9.2,1.6,6.6,2.9,10.4,7.8,4.1,1.2,3.4,1.5,7.4,3,6.9,9.5,16,1.4,3.7,"Health Care & Social Assistance"
"Northam","WA",-31.6505,116.6728,10830,5298,5532,39.4,5.6,3.6,9.1,2.9,8.2,3.8,10.1,5,6.5,0.5,1.6,1.2,3.1,3.4,7.9,9.4,10.5,1,4.3,"Health Care & Social Assistance"
"Northampton","WA",-28.3529,114.6286,3281,1673,1608,47,22.4,5.4,3.3,0.3,8.1,1,9.1,13.9,4.2,0.2,0.7,1.6,1.9,3.1,4.3,7.7,7.3,1.1,1.6,"Agriculture, Forestry and Fishing"
"Orange","NSW",-33.2846,149.0988,39419,19425,19994,35.7,2,6.4,8.6,0.9,7.2,2.8,11.4,6.5,3.9,1,1.9,1.3,4.5,2.8,7,8.7,16.2,0.6,4.5,"Health Care & Social Assistance"
"Palmerston","NT",-12.4828,130.9839,29385,14795,14590,29,0.3,2.5,5.2,1.8,8.8,3.2,9.8,4.7,5.7,1,1.7,1.6,4.2,3.3,24.7,6.7,7.9,1.3,4.1,"Public Administration & Safety"
"Parkes","NSW",-33.1388,148.1747,15083,7486,7597,39.1,11.3,7.2,5.5,1.1,5.9,2.9,11.6,7.4,6.7,0.6,1.2,0.8,3.2,2.1,6.9,7.3,11.3,0.6,4.5,"Retail Trade"
"Parramatta","NSW",-33.8213,151.0025,174783,88149,86634,33.5,0.2,0.1,9.2,1,6.9,6.1,10.1,6.3,5,2.8,6.8,1.4,8.6,3.7,5.5,6.6,11.9,1.3,3.7,"Health Care & Social Assistance"
"Penrith","NSW",-33.7564,150.7009,184589,91744,92845,33.7,0.6,0.2,11.8,1.5,9.4,5.5,11.4,5.5,7.4,1.4,4.4,1.5,4.1,3,7.4,6.7,10.2,1.3,4.2,"Manufacturing"
"Perth","WA",-31.9234,115.8834,18315,10153,8162,32.1,0.3,9.9,4.4,1.2,7.5,2.5,5.5,9.7,2.6,1.4,4.1,2,19.4,4.4,5.6,4.9,8.6,1.5,2.4,"Professional Scientific & Technical Services"
"Port Augusta","SA",-32.4974,137.7715,14413,7405,7008,37.9,0.7,3.7,4.1,4.6,7.5,1.3,11.7,9,6.1,0.9,1.6,1.1,2,3,13.1,8.2,15.5,0.5,3.5,"Health Care & Social Assistance"
"Port Hedland","WA",-20.3135,118.6093,15659,8823,6836,31,0.3,25,5.4,1,15.4,2,6.1,4.5,7.2,0.2,0.7,2.7,2.5,3.6,4.3,5.8,7.3,0.4,3.2,"Mining"
"Port Lincoln","SA",-34.7282,135.8733,14462,7131,7331,38.3,8.9,1.4,7.4,1.4,9.3,4.1,13.1,6.6,5.1,0.7,2.2,1.3,3.2,3,5.2,8,12.3,0.7,4.2,"Retail Trade"
"Prospect","SA",-34.8833,138.5833,20690,10308,10382,36.6,0.6,0.7,8.1,1.2,6.2,3.4,10.4,6.9,3.2,2,3.3,1.6,7.6,3.2,9.3,10.8,14.7,1.6,3.7,"Health Care & Social Assistance"
"Quilpie","QLD",-26.615,144.2683,1007,531,476,40.1,29.6,2,1.7,1.3,8.6,2.2,7.4,5.7,8.1,0.7,1.1,0.6,0.9,0.6,13.1,6.1,6.3,0.6,1.1,"Agriculture, Forestry and Fishing"
"Ravensthorpe","WA",-33.5843,120.0454,2187,1189,998,38.8,22.4,28,2.8,0.7,7.7,2.3,5.4,3.3,4,0.4,0,1.8,2,0.8,3.8,6.2,4.5,0,2.3,"Mining"
"Richmond","TAS",-42.7369,147.4366,847,447,400,38.1,39.6,0.9,2.2,1.1,2.4,1.7,5.9,5.2,5,0,2.2,0,0.9,1.1,12.2,5,7.8,0.7,2.2,"Agriculture, Forestry and Fishing"
"Rockhampton","QLD",-23.3782,150.5106,112333,56561,55772,37,2.3,5.3,7.6,2.6,8.8,3.5,10.9,7.2,6.2,0.8,1.7,1.5,3.8,2.4,6.6,9,12.8,0.8,4.2,"Health Care & Social Assistance"
"Roebourne","WA",-20.7766,117.145,23634,14068,9566,32.4,0.2,22.7,4.1,1.7,22.1,1.9,5.4,4.7,6.5,0.4,0.5,2.4,3.8,3.2,5.5,5.4,4,0.2,2.9,"Mining"
"Roxby Downs","SA",-30.5573,136.8922,4826,2859,1967,29.8,0.1,49.4,3.3,0.8,9.3,2.9,4.2,6.4,1.5,0.3,0.7,1.3,1.7,6.2,1,4.2,2.3,0.7,1.8,"Mining"
"Singleton","NSW",-32.569,151.1649,23523,12191,11332,35,3.9,24.6,7,2.3,6.2,3,8.1,6.6,3.1,0.5,1.2,1.6,3.6,3.5,5.3,5.1,6.4,0.5,5.2,"Mining"
"Sorell","TAS",-42.7831,147.5613,13346,6702,6644,40.3,3.7,0.5,8.5,2.1,11,3.4,11.4,6.1,5.5,1.2,2.3,1.4,4,2.7,10.6,6.6,11.6,1.5,4,"Health Care & Social Assistance"
"South Perth","WA",-31.983,115.8619,43618,21476,22142,36,0.4,6.1,5,1.1,7,3.2,8.4,6.6,3.1,1.2,4,2.5,14.1,3.1,5.8,10,11.5,1.8,3,"Professional Scientific & Technical Services"
"Subiaco","WA",-31.9464,115.8233,18832,9192,9640,34.8,0.3,6.9,3.4,1,4.4,2,7,6.1,1.7,1.6,3.7,2.5,18,3,5.6,11.3,15.7,2,1.9,"Professional Scientific & Technical Services"
"Sydney","NSW",-33.8631,151.2043,183281,97499,85782,32.6,0.1,0.2,3.6,0.5,3.1,3.8,7.6,10,3.1,6.1,10.1,1.8,16.8,4.4,5.6,7.3,7.9,3,2.8,"Professional Scientific & Technical Services"
"Tea Tree Gully","SA",-34.822173,138.730796,98315,48382,49933,39.8,0.4,0.7,10.9,1.5,9,3.7,12.2,5,4.2,1.6,3.8,1.3,5.3,3.4,9.2,8.1,13.1,1.1,4.5,"Health Care & Social Assistance"
"Temora","NSW",-34.4499,147.5344,5953,2997,2956,44.4,20.8,0.4,3.9,2.1,5.6,4.6,12.7,4.8,6.2,0.4,1.9,0.9,4.1,1.2,5.6,8.6,9.9,0.8,3.6,"Agriculture, Forestry and Fishing"
"Tenterfield","NSW",-29.051,152.0183,6990,3512,3478,47.3,20.2,1.9,6,0.9,7.5,2.3,11,6.8,4.5,0.3,0.9,0.8,3.4,1.9,5.8,7.7,11.1,0.8,3.8,"Agriculture, Forestry and Fishing"
"Toowoomba","QLD",-27.5622,151.9528,155473,76067,79406,37.2,6.3,1.8,9.3,1.1,7.9,3.7,10.9,5.7,4.7,1,2.8,1.3,4.3,2.2,6.7,9.9,13.6,0.9,4,"Health Care & Social Assistance"
"Townsville","QLD",-19.2643,146.8118,180114,90460,89654,33.2,0.5,2.9,7.6,1.6,9.9,3,10.7,6.9,5.1,1.4,1.6,1.6,4.7,3,11.9,8.1,12.5,1.3,3.7,"Health Care & Social Assistance"
"Unley","SA",-34.95,138.6,38374,18129,20245,39.5,0.4,1.2,5.4,1.3,4.7,3.2,9.4,6.5,2,2.3,4.6,2,12.3,3,7.9,11.3,16.2,1.8,3,"Health Care & Social Assistance"
"Wagga Wagga","NSW",-35.1292,147.3605,61781,30421,31360,33.9,3.9,0.2,7.4,1.1,7.6,3.7,11.7,7.3,4.7,1,2.1,1.3,3.7,2.6,10.9,10.8,13.5,0.7,4,"Health Care & Social Assistance"
"Wagin","WA",-33.3102,117.3418,1901,953,948,45.9,29.7,2.3,5.4,0.9,6,3.8,9.3,3.4,5,0.9,1.5,0.5,2.4,0.8,5.2,7.7,8.7,0.5,4.2,"Agriculture, Forestry and Fishing"
"Walkerville","SA",-34.897608,138.614648,7308,3535,3773,44.2,0.9,0.9,6.3,1.2,5.1,3.8,9,6.6,2,1.9,3.9,2.3,10,2.5,7.3,10.2,20,1.4,3.4,"Health Care & Social Assistance"
"Wanneroo","WA",-31.7639,115.808,160281,79599,80682,32.5,1,4.3,8.7,1.1,13.8,4,11.4,5.4,3.7,1.1,3.2,1.6,5.8,3.6,6.1,6.5,10.7,1.2,4.7,"Construction"
"Warrnambool","VIC",-38.3866,142.5053,32667,16050,16617,37.8,2.3,0.4,10.3,1.4,8.8,3.8,13.7,8.8,3.6,1.2,2.2,1.3,3.9,2.7,4.9,9.2,14.9,1.5,3.5,"Health Care & Social Assistance"
"Wellington","NSW",-32.5574,148.9439,8833,4650,4183,40.3,17.8,1.1,4.5,1.8,4.9,2.4,9,6.9,4.1,0.7,1,1.2,2.7,2.2,10.7,9,12.9,1.1,3.3,"Agriculture, Forestry and Fishing"
"Wentworth","NSW",-34.1058,141.9152,6837,3568,3269,41.6,19.8,3.8,6,2.3,6,3.2,8.8,7.1,4.1,0.5,1.5,1.1,2.6,4,5.3,7.4,9.7,1.1,3,"Agriculture, Forestry and Fishing"
"Whyalla","SA",-33.0334,137.5642,22561,11518,11043,38.2,0.4,6.7,22.3,0.8,5.5,1.8,11.1,6.2,4.5,0.8,1.3,1.1,2.7,4.3,4.1,8.1,12.6,0.5,3.4,"Manufacturing"
"Williams","WA",-33.0272,116.8785,940,482,458,40.1,42.6,3.9,2.6,0,4.1,3.1,6.6,5.9,3.1,0.6,1.1,0.6,1.1,0.6,5.9,8.3,5.9,0.7,2,"Agriculture, Forestry and Fishing"
"Wiluna","WA",-26.5934,120.2226,1198,843,355,34.6,1.7,35.8,25.3,0,9,0.4,0.8,3.9,1,0,0.4,0,2.2,4.6,6.2,2.4,3.6,0,1.2,"Mining"
"Winton","QLD",-22.3826,143.0414,1380,734,646,43.4,30.7,1.5,1,1.3,7,2,8.7,6.5,5.4,0,0.6,0.4,0.9,1.6,13.6,5.6,7.5,0.9,1.9,"Agriculture, Forestry and Fishing"
"Wollongong","NSW",-34.4263,150.8927,202068,101108,100960,38.2,0.3,2.7,9.7,1.1,7.2,2.5,9.8,7.2,4.9,1.4,3.9,1.5,5.7,3.2,7,11.1,13.4,1.4,4,"Health Care & Social Assistance"
"Woorabinda","QLD",-24.114,149.432,976,469,507,22.2,2.9,3.9,0,0,4.8,0,1.9,0,1.4,0,0,0,0,1.4,19.7,15.9,31.3,1.4,8.7,"Health Care & Social Assistance"
"Wyalkatchem","WA",-31.1819,117.3821,542,276,266,45.3,32.9,0,1.4,5.6,0,6.5,6,1.9,6.5,0,1.9,0,0,1.4,7.9,13,12,0,1.9,"Agriculture, Forestry and Fishing"
"Wyndham","WA",-15.4849,128.1201,166699,83518,83181,31.9,0.6,0.2,11.8,1,8.3,5.2,10.6,5.4,9,2.1,5,1.4,6.4,3.9,6.2,5.8,9.3,1.9,3.4,"Manufacturing"
"Wyong","NSW",-33.2843,151.4242,154334,75129,79205,39.9,0.7,0.7,10.2,1.8,10.2,3.4,13.6,7.7,4.7,1.5,2.7,1.5,4.2,3.5,6.2,6.4,13.3,1.4,4.2,"Retail Trade"
"York","WA",-31.8859,116.7673,3462,1723,1739,47,17.7,4.6,3.4,1.8,7.1,4,11.1,6.4,4.6,0.5,1.2,1.7,4.7,1.3,5.6,7.5,10.5,0.8,3.1,"Agriculture, Forestry and Fishing"
